[{"id": "8xpGj_YkI2X6QxqXUJPw7g", "alias": "7th-street-burger-new-york", "name": "7th Street Burger", "image_url": "https://s3-media2.fl.yelpcdn.com/bphoto/GYqi52GZUNzGvDScteUQ8A/o.jpg", "is_closed": false, "url": "https://www.yelp.com/biz/7th-street-burger-new-york?adjust_creative=oRabL1NETJoFCrbBRTmW0A&utm_campaign=yelp_api_v3&utm_medium=api_v3_business_search&utm_source=oRabL1NETJoFCrbBRTmW0A", "review_count": 267, "categories": [{"alias": "burgers", "title": "Burgers"}], "rating": 4.5, "coordinates": {"latitude": 40.72697, "longitude": -73.98546}, "transactions": ["pickup", "delivery"], "price": "$$", "location": {"address1": "91 E 7th St", "address2": null, "address3": "", "city": "New York", "zip_code": "10009", "country": "US", "state": "NY", "display_address": ["91 E 7th St", "New York, NY 10009"]}, "phone": "+16464906797", "display_phone": "(646) 490-6797", "distance": 2280.348537879202}, {"id": "H26qMBb0OFNn2xmSTM1Phw", "alias": "kings-of-kobe-new-york-new-york-2", "name": "Kings of Kobe - New York", "image_url": "https://s3-media1.fl.yelpcdn.com/bphoto/E09YECuHcoVEE1AKdJbtZg/o.jpg", "is_closed": false, "url": "https://www.yelp.com/biz/kings-of-kobe-new-york-new-york-2?adjust_creative=oRabL1NETJoFCrbBRTmW0A&utm_campaign=yelp_api_v3&utm_medium=api_v3_business_search&utm_source=oRabL1NETJoFCrbBRTmW0A", "review_count": 418, "categories": [{"alias": "burgers", "title": "Burgers"}, {"alias": "newamerican", "title": "American (New)"}, {"alias": "bars", "title": "Bars"}], "rating": 4.5, "coordinates": {"latitude": 40.761172, "longitude": -74.000307}, "transactions": ["pickup", "delivery"], "price": "$$", "location": {"address1": "650 W 42nd St", "address2": null, "address3": "", "city": "New York", "zip_code": "10036", "country": "US", "state": "NY", "display_address": ["650 W 42nd St", "New York, NY 10036"]}, "phone": "+16463705121", "display_phone": "(646) 370-5121", "distance": 6283.378162708868}, {"id": "vTyC--4tl7_AzHqbFpCqPg", "alias": "not-today-maybe-tomorrow-brooklyn", "name": "Not Today Maybe Tomorrow", "image_url": "https://s3-media2.fl.yelpcdn.com/bphoto/cUkl9d9xxAqNm8_T4cUT8w/o.jpg", "is_closed": false, "url": "https://www.yelp.com/biz/not-today-maybe-tomorrow-brooklyn?adjust_creative=oRabL1NETJoFCrbBRTmW0A&utm_campaign=yelp_api_v3&utm_medium=api_v3_business_search&utm_source=oRabL1NETJoFCrbBRTmW0A", "review_count": 19, "categories": [{"alias": "bars", "title": "Bars"}], "rating": 4.5, "coordinates": {"latitude": 40.714697, "longitude": -73.944161}, "transactions": ["pickup", "delivery"], "location": {"address1": "749 Metropolitan Ave", "address2": "", "address3": null, "city": "Brooklyn", "zip_code": "11211", "country": "US", "state": "NY", "display_address": ["749 Metropolitan Ave", "Brooklyn, NY 11211"]}, "phone": "+13477630591", "display_phone": "(347) 763-0591", "distance": 3080.4015555332026}, {"id": "m86CNmYThtzzWB3nPnrhbg", "alias": "emily-west-village-new-york", "name": "Emily - West Village", "image_url": "https://s3-media2.fl.yelpcdn.com/bphoto/6zPD8MFRcJLJiJoo-vXD9w/o.jpg", "is_closed": false, "url": "https://www.yelp.com/biz/emily-west-village-new-york?adjust_creative=oRabL1NETJoFCrbBRTmW0A&utm_campaign=yelp_api_v3&utm_medium=api_v3_business_search&utm_source=oRabL1NETJoFCrbBRTmW0A", "review_count": 944, "categories": [{"alias": "pizza", "title": "Pizza"}, {"alias": "burgers", "title": "Burgers"}], "rating": 4.0, "coordinates": {"latitude": 40.729375015649076, "longitude": -74.00386306706551}, "transactions": ["pickup", "delivery"], "price": "$$", "location": {"address1": "35 Downing St", "address2": "", "address3": null, "city": "New York", "zip_code": "10014", "country": "US", "state": "NY", "display_address": ["35 Downing St", "New York, NY 10014"]}, "phone": "+19179356434", "display_phone": "(917) 935-6434", "distance": 3244.5811299986576}, {"id": "UA2M9QFZghe-9th2KwLoWQ", "alias": "burger-and-lobster-flatiron-nyc-new-york", "name": "Burger & Lobster - Flatiron NYC", "image_url": "https://s3-media1.fl.yelpcdn.com/bphoto/2Z3Cn2sDxitAmWJYTdrkpA/o.jpg", "is_closed": false, "url": "https://www.yelp.com/biz/burger-and-lobster-flatiron-nyc-new-york?adjust_creative=oRabL1NETJoFCrbBRTmW0A&utm_campaign=yelp_api_v3&utm_medium=api_v3_business_search&utm_source=oRabL1NETJoFCrbBRTmW0A", "review_count": 5866, "categories": [{"alias": "seafood", "title": "Seafood"}, {"alias": "burgers", "title": "Burgers"}, {"alias": "newamerican", "title": "American (New)"}], "rating": 4.0, "coordinates": {"latitude": 40.74007, "longitude": -73.99344}, "transactions": ["pickup", "delivery"], "price": "$$", "location": {"address1": "39 W 19th St", "address2": "", "address3": "", "city": "New York", "zip_code": "10011", "country": "US", "state": "NY", "display_address": ["39 W 19th St", "New York, NY 10011"]}, "phone": "+16468337532", "display_phone": "(646) 833-7532", "distance": 3867.2454876885745}, {"id": "__EvomQ2tE1NtkWn32WEXg", "alias": "au-cheval-new-york-7", "name": "Au Cheval", "image_url": "https://s3-media1.fl.yelpcdn.com/bphoto/1RvTJh_rYIi821Omxaib4A/o.jpg", "is_closed": false, "url": "https://www.yelp.com/biz/au-cheval-new-york-7?adjust_creative=oRabL1NETJoFCrbBRTmW0A&utm_campaign=yelp_api_v3&utm_medium=api_v3_business_search&utm_source=oRabL1NETJoFCrbBRTmW0A", "review_count": 778, "categories": [{"alias": "burgers", "title": "Burgers"}, {"alias": "newamerican", "title": "American (New)"}, {"alias": "cocktailbars", "title": "Cocktail Bars"}], "rating": 4.5, "coordinates": {"latitude": 40.7183878, "longitude": -74.0015522}, "transactions": [], "price": "$$$", "location": {"address1": "33 Cortlandt Aly", "address2": "", "address3": null, "city": "New York", "zip_code": "10013", "country": "US", "state": "NY", "display_address": ["33 Cortlandt Aly", "New York, NY 10013"]}, "phone": "+16463502429", "display_phone": "(646) 350-2429", "distance": 2284.0704906762}, {"id": "RWWlZxOYALuHmBXHc2M0-w", "alias": "smashed-new-york", "name": "SMASHED", "image_url": "https://s3-media1.fl.yelpcdn.com/bphoto/Jb15QXB91FLTThsrJpts5g/o.jpg", "is_closed": false, "url": "https://www.yelp.com/biz/smashed-new-york?adjust_creative=oRabL1NETJoFCrbBRTmW0A&utm_campaign=yelp_api_v3&utm_medium=api_v3_business_search&utm_source=oRabL1NETJoFCrbBRTmW0A", "review_count": 132, "categories": [{"alias": "burgers", "title": "Burgers"}], "rating": 4.0, "coordinates": {"latitude": 40.721819, "longitude": -73.988605}, "transactions": ["pickup", "delivery"], "price": "$$", "location": {"address1": "177 Orchard St", "address2": null, "address3": "", "city": "New York", "zip_code": "10002", "country": "US", "state": "NY", "display_address": ["177 Orchard St", "New York, NY 10002"]}, "phone": "+12129458008", "display_phone": "(212) 945-8008", "distance": 1827.8717982510457}, {"id": "2Ve5vDicmyUEfeiEwjU4pQ", "alias": "gordons-queens", "name": "Gordons", "image_url": "https://s3-media2.fl.yelpcdn.com/bphoto/ZkEJss6_SB8sApiBXht59Q/o.jpg", "is_closed": false, "url": "https://www.yelp.com/biz/gordons-queens?adjust_creative=oRabL1NETJoFCrbBRTmW0A&utm_campaign=yelp_api_v3&utm_medium=api_v3_business_search&utm_source=oRabL1NETJoFCrbBRTmW0A", "review_count": 32, "categories": [{"alias": "burgers", "title": "Burgers"}, {"alias": "seafood", "title": "Seafood"}, {"alias": "beerbar", "title": "Beer Bar"}], "rating": 4.5, "coordinates": {"latitude": 40.76382583695227, "longitude": -73.77082589999999}, "transactions": [], "location": {"address1": "4017 Bell Blvd", "address2": "", "address3": null, "city": "Queens", "zip_code": "11361", "country": "US", "state": "NY", "display_address": ["4017 Bell Blvd", "Queens, NY 11361"]}, "phone": "+17188198266", "display_phone": "(718) 819-8266", "distance": 18658.982364417192}, {"id": "MfbVI5reXLIIs8Cc2HwgQw", "alias": "breakroom-new-york", "name": "Breakroom", "image_url": "https://s3-media2.fl.yelpcdn.com/bphoto/-V8o2Qb1VxGHRpH3GYZBQQ/o.jpg", "is_closed": false, "url": "https://www.yelp.com/biz/breakroom-new-york?adjust_creative=oRabL1NETJoFCrbBRTmW0A&utm_campaign=yelp_api_v3&utm_medium=api_v3_business_search&utm_source=oRabL1NETJoFCrbBRTmW0A", "review_count": 1682, "categories": [{"alias": "burgers", "title": "Burgers"}, {"alias": "tacos", "title": "Tacos"}, {"alias": "hotdog", "title": "Hot Dogs"}], "rating": 4.5, "coordinates": {"latitude": 40.7166907225542, "longitude": -73.9999440120647}, "transactions": ["pickup", "delivery"], "price": "$$", "location": {"address1": "83 Baxter St", "address2": "", "address3": "", "city": "New York", "zip_code": "10013", "country": "US", "state": "NY", "display_address": ["83 Baxter St", "New York, NY 10013"]}, "phone": "+12122272802", "display_phone": "(212) 227-2802", "distance": 2056.0367678144135}, {"id": "HYoPErHY9ZvtfXXCDmDOhw", "alias": "brooklyn-beef-n-cheese-new-york", "name": "Brooklyn Beef N\u2019 Cheese", "image_url": "https://s3-media2.fl.yelpcdn.com/bphoto/lfM3EePD3qY4Ni6WNsC8uA/o.jpg", "is_closed": false, "url": "https://www.yelp.com/biz/brooklyn-beef-n-cheese-new-york?adjust_creative=oRabL1NETJoFCrbBRTmW0A&utm_campaign=yelp_api_v3&utm_medium=api_v3_business_search&utm_source=oRabL1NETJoFCrbBRTmW0A", "review_count": 129, "categories": [{"alias": "newamerican", "title": "American (New)"}, {"alias": "burgers", "title": "Burgers"}, {"alias": "sandwiches", "title": "Sandwiches"}], "rating": 4.5, "coordinates": {"latitude": 40.70651872682522, "longitude": -74.00777149999999}, "transactions": ["pickup", "delivery"], "price": "$$", "location": {"address1": "70 Pine St", "address2": "", "address3": "City Acres Market", "city": "New York", "zip_code": "10005", "country": "US", "state": "NY", "display_address": ["70 Pine St", "City Acres Market", "New York, NY 10005"]}, "phone": "+19172612389", "display_phone": "(917) 261-2389", "distance": 2409.9857900459024}, {"id": "IBgjj5VBu5JJvKgo9EzKrg", "alias": "the-three-monkeys-new-york-3", "name": "The Three Monkeys", "image_url": "https://s3-media4.fl.yelpcdn.com/bphoto/9PvL7hV_rZUQI0AiAaGSwA/o.jpg", "is_closed": false, "url": "https://www.yelp.com/biz/the-three-monkeys-new-york-3?adjust_creative=oRabL1NETJoFCrbBRTmW0A&utm_campaign=yelp_api_v3&utm_medium=api_v3_business_search&utm_source=oRabL1NETJoFCrbBRTmW0A", "review_count": 1340, "categories": [{"alias": "sportsbars", "title": "Sports Bars"}, {"alias": "beergardens", "title": "Beer Gardens"}, {"alias": "beerbar", "title": "Beer Bar"}], "rating": 4.0, "coordinates": {"latitude": 40.764164, "longitude": -73.98306}, "transactions": ["pickup", "delivery"], "price": "$$", "location": {"address1": "236 W 54th St", "address2": "", "address3": "", "city": "New York", "zip_code": "10019", "country": "US", "state": "NY", "display_address": ["236 W 54th St", "New York, NY 10019"]}, "phone": "+12125862080", "display_phone": "(212) 586-2080", "distance": 6367.185736351127}, {"id": "NDntYYgQlNSMZcminW03rg", "alias": "burger-village-brooklyn-8", "name": "Burger Village", "image_url": "https://s3-media1.fl.yelpcdn.com/bphoto/5ctINAcUszuPmbvAxSntdQ/o.jpg", "is_closed": false, "url": "https://www.yelp.com/biz/burger-village-brooklyn-8?adjust_creative=oRabL1NETJoFCrbBRTmW0A&utm_campaign=yelp_api_v3&utm_medium=api_v3_business_search&utm_source=oRabL1NETJoFCrbBRTmW0A", "review_count": 67, "categories": [{"alias": "burgers", "title": "Burgers"}, {"alias": "gluten_free", "title": "Gluten-Free"}, {"alias": "vegan", "title": "Vegan"}], "rating": 4.5, "coordinates": {"latitude": 40.6884272, "longitude": -73.9831304054385}, "transactions": ["pickup", "delivery"], "price": "$$", "location": {"address1": "286 Livingston St", "address2": "", "address3": null, "city": "Brooklyn", "zip_code": "11217", "country": "US", "state": "NY", "display_address": ["286 Livingston St", "Brooklyn, NY 11217"]}, "phone": "+19179090594", "display_phone": "(917) 909-0594", "distance": 2089.3379270483374}, {"id": "WZ0oP9yLxgSPMjXfDQtUig", "alias": "7th-street-burger-new-york-4", "name": "7th Street Burger", "image_url": "https://s3-media4.fl.yelpcdn.com/bphoto/AQ126l7oFq1YHDpGFEXrSQ/o.jpg", "is_closed": false, "url": "https://www.yelp.com/biz/7th-street-burger-new-york-4?adjust_creative=oRabL1NETJoFCrbBRTmW0A&utm_campaign=yelp_api_v3&utm_medium=api_v3_business_search&utm_source=oRabL1NETJoFCrbBRTmW0A", "review_count": 101, "categories": [{"alias": "burgers", "title": "Burgers"}], "rating": 4.5, "coordinates": {"latitude": 40.77616, "longitude": -73.95321}, "transactions": ["pickup", "delivery"], "location": {"address1": "1603 2nd Ave", "address2": "", "address3": null, "city": "New York", "zip_code": "10028", "country": "US", "state": "NY", "display_address": ["1603 2nd Ave", "New York, NY 10028"]}, "phone": "+16464788453", "display_phone": "(646) 478-8453", "distance": 7998.586432874067}, {"id": "7U-XPpdrYDk-H5_M-Lfy3Q", "alias": "ruthies-brooklyn-2", "name": "Ruthie's", "image_url": "https://s3-media2.fl.yelpcdn.com/bphoto/XiRzryofCrtx2tLUnsHceQ/o.jpg", "is_closed": false, "url": "https://www.yelp.com/biz/ruthies-brooklyn-2?adjust_creative=oRabL1NETJoFCrbBRTmW0A&utm_campaign=yelp_api_v3&utm_medium=api_v3_business_search&utm_source=oRabL1NETJoFCrbBRTmW0A", "review_count": 24, "categories": [{"alias": "newamerican", "title": "American (New)"}, {"alias": "salad", "title": "Salad"}, {"alias": "burgers", "title": "Burgers"}], "rating": 4.5, "coordinates": {"latitude": 40.68355, "longitude": -73.992379}, "transactions": [], "location": {"address1": "241 Smith St", "address2": "", "address3": null, "city": "Brooklyn", "zip_code": "11231", "country": "US", "state": "NY", "display_address": ["241 Smith St", "Brooklyn, NY 11231"]}, "phone": "", "display_phone": "", "distance": 2830.153778115055}, {"id": "fgtw4swOHXEFwZpBCG05rQ", "alias": "black-iron-burger-new-york-8", "name": "Black Iron Burger", "image_url": "https://s3-media4.fl.yelpcdn.com/bphoto/hNY4JOAarEv7OfIQromwLg/o.jpg", "is_closed": false, "url": "https://www.yelp.com/biz/black-iron-burger-new-york-8?adjust_creative=oRabL1NETJoFCrbBRTmW0A&utm_campaign=yelp_api_v3&utm_medium=api_v3_business_search&utm_source=oRabL1NETJoFCrbBRTmW0A", "review_count": 1135, "categories": [{"alias": "burgers", "title": "Burgers"}, {"alias": "beerbar", "title": "Beer Bar"}, {"alias": "cocktailbars", "title": "Cocktail Bars"}], "rating": 4.0, "coordinates": {"latitude": 40.75427, "longitude": -73.9903099}, "transactions": ["pickup", "delivery"], "price": "$$", "location": {"address1": "245 W 38th St", "address2": null, "address3": "", "city": "New York", "zip_code": "10018", "country": "US", "state": "NY", "display_address": ["245 W 38th St", "New York, NY 10018"]}, "phone": "+16464763116", "display_phone": "(646) 476-3116", "distance": 5341.721112502879}, {"id": "BCwSqk9WY5woPkWEkvWkMg", "alias": "bronsons-burgers-new-york", "name": "Bronson's Burgers", "image_url": "https://s3-media1.fl.yelpcdn.com/bphoto/ukIdYPMs7EwARh0GuOS6yw/o.jpg", "is_closed": false, "url": "https://www.yelp.com/biz/bronsons-burgers-new-york?adjust_creative=oRabL1NETJoFCrbBRTmW0A&utm_campaign=yelp_api_v3&utm_medium=api_v3_business_search&utm_source=oRabL1NETJoFCrbBRTmW0A", "review_count": 51, "categories": [{"alias": "burgers", "title": "Burgers"}], "rating": 4.5, "coordinates": {"latitude": 40.72317, "longitude": -73.99568}, "transactions": [], "price": "$$", "location": {"address1": "250 Mulberry St", "address2": "", "address3": null, "city": "New York", "zip_code": "10012", "country": "US", "state": "NY", "display_address": ["250 Mulberry St", "New York, NY 10012"]}, "phone": "+12128886280", "display_phone": "(212) 888-6280", "distance": 2277.702132472658}, {"id": "ruYQv7KVDvmWSF82sM3ZhQ", "alias": "milk-burger-new-york-2", "name": "Milk Burger", "image_url": "https://s3-media3.fl.yelpcdn.com/bphoto/aV3_jGkqgQmZ7CUPYct1Zw/o.jpg", "is_closed": false, "url": "https://www.yelp.com/biz/milk-burger-new-york-2?adjust_creative=oRabL1NETJoFCrbBRTmW0A&utm_campaign=yelp_api_v3&utm_medium=api_v3_business_search&utm_source=oRabL1NETJoFCrbBRTmW0A", "review_count": 13, "categories": [{"alias": "burgers", "title": "Burgers"}, {"alias": "hotdogs", "title": "Fast Food"}, {"alias": "tradamerican", "title": "American (Traditional)"}], "rating": 4.0, "coordinates": {"latitude": 40.72095, "longitude": -73.9829}, "transactions": ["pickup", "delivery"], "location": {"address1": "321 E Houston St", "address2": "", "address3": null, "city": "New York", "zip_code": "10002", "country": "US", "state": "NY", "display_address": ["321 E Houston St", "New York, NY 10002"]}, "phone": "+12123601988", "display_phone": "(212) 360-1988", "distance": 1586.5767425825488}, {"id": "qOp4T7UxfL6MgO41dN3Qlg", "alias": "whitmans-new-york", "name": "Whitmans", "image_url": "https://s3-media2.fl.yelpcdn.com/bphoto/IZ47pjazvKalwuJT81rFeg/o.jpg", "is_closed": false, "url": "https://www.yelp.com/biz/whitmans-new-york?adjust_creative=oRabL1NETJoFCrbBRTmW0A&utm_campaign=yelp_api_v3&utm_medium=api_v3_business_search&utm_source=oRabL1NETJoFCrbBRTmW0A", "review_count": 674, "categories": [{"alias": "burgers", "title": "Burgers"}, {"alias": "tradamerican", "title": "American (Traditional)"}], "rating": 4.0, "coordinates": {"latitude": 40.727942, "longitude": -73.984469}, "transactions": ["pickup", "delivery"], "price": "$$", "location": {"address1": "406 E 9th St", "address2": "", "address3": "", "city": "New York", "zip_code": "10009", "country": "US", "state": "NY", "display_address": ["406 E 9th St", "New York, NY 10009"]}, "phone": "+19172612858", "display_phone": "(917) 261-2858", "distance": 2373.2438364084655}, {"id": "uYLIo8FCr9Ug5SFORDdsPA", "alias": "the-burgary-new-york", "name": "The Burgary", "image_url": "https://s3-media4.fl.yelpcdn.com/bphoto/X9GgkFxST1EcV4Te5-4btw/o.jpg", "is_closed": false, "url": "https://www.yelp.com/biz/the-burgary-new-york?adjust_creative=oRabL1NETJoFCrbBRTmW0A&utm_campaign=yelp_api_v3&utm_medium=api_v3_business_search&utm_source=oRabL1NETJoFCrbBRTmW0A", "review_count": 300, "categories": [{"alias": "burgers", "title": "Burgers"}], "rating": 4.0, "coordinates": {"latitude": 40.71944096840517, "longitude": -73.9850998321304}, "transactions": ["pickup", "delivery"], "price": "$$", "location": {"address1": "67 Clinton St", "address2": "", "address3": "", "city": "New York", "zip_code": "10002", "country": "US", "state": "NY", "display_address": ["67 Clinton St", "New York, NY 10002"]}, "phone": "+12125296900", "display_phone": "(212) 529-6900", "distance": 1472.7311313966452}, {"id": "nnMEtKLL0lyaXyXACRkVEQ", "alias": "no-7-brooklyn-3", "name": "no. 7", "image_url": "https://s3-media2.fl.yelpcdn.com/bphoto/si-Vh_hrPyzc3lP4fRt1hg/o.jpg", "is_closed": false, "url": "https://www.yelp.com/biz/no-7-brooklyn-3?adjust_creative=oRabL1NETJoFCrbBRTmW0A&utm_campaign=yelp_api_v3&utm_medium=api_v3_business_search&utm_source=oRabL1NETJoFCrbBRTmW0A", "review_count": 8, "categories": [{"alias": "newamerican", "title": "American (New)"}], "rating": 4.0, "coordinates": {"latitude": 40.67831, "longitude": -73.96843}, "transactions": [], "location": {"address1": "627 Vanderbilt Ave", "address2": "", "address3": null, "city": "Brooklyn", "zip_code": "11238", "country": "US", "state": "NY", "display_address": ["627 Vanderbilt Ave", "Brooklyn, NY 11238"]}, "phone": "", "display_phone": "", "distance": 3314.736876815016}]